{
  "meetings": [
    {
      "id": "1",
      "name": "Omega group",
      "profilePic": "/assets/img/meetings/omega.jpg",
      "about": "Omega group meetings sucks.",
      "open": true,
      "smoking": true,
      "coffee": true,
      "handicapped": true,
      "format": "Big Book study and discussion",
      "duration": 90,
      "schedule": [{
        "dow": "Monday",
        "time": "10:00:00 am",
        "location": "tasha House" 
      }],
      "location": [
        {
          "name": "tasha House",
          "gps": [1,1],
          "address": {
            "street": "1424 Central Ave.",
            "city": "Indianapolis",
            "state": "IN",
            "zip": "46202"
          }
        }
      ],
      "contact": {
        "name": "George W.",
        "phone":"317 699-2000"
      },
      "current": {
        "location": "tasha House",
        "start": "2020-8-30 02:45:67 pm",
        "end": "2020-8-30 04:05:67 pm",
        "gps": [1,1],
        "WiFiSSIDs": "thouse, rainbow, comcast, xfiniti",
        "secretary": {
          "name": "Ms Mikki M.",
          "phone": "317 699-2111"
        }
      }
    },

    {
      "id": "2",
      "name": "Beta group",
      "profilePic": "/assets/img/meetings/beta.jpg",
      "about": "Beta group meetings rock.",
      "open": false,
      "smoking": true,
      "coffee": true,
      "handicapped": false,
      "format": "We smoke crack and fuck yo momma the whole meeting",
      "duration": 360,
      "schedule": [{
        "dow": "Friday",
        "time": "1:00:00 am",
        "location": "Yo Momma's bedroom" 
      }, {
      "dow": "Saturday",
      "time": "10:00:00 pm",
      "location": "Yo Momma's bedroom" 
    }],
      "location": [
        {
          "name": "Yo Momma's House",
          "gps": [1,1],
          "address": {
            "street": "666 Dumb Ave.",
            "city": "Indianapolis",
            "state": "IN",
            "zip": "46202"
          }
        }
      ],
      "contact": {
        "name": "George W.",
        "phone":"317 699-2000"
      },
      "current": {
        "location": "Yo Momma's bedroom",
        "start": "2020-8-31 02:45:67 pm",
        "end": "",
        "gps": [1,1],
        "WiFiSSIDs": "thouse, rainbow, comcast, xfiniti",
        "secretary": {
          "name": "Danielle SuzyQ",
          "phone": "317 699-2111"
        }
      }
    }
  ]
}
